%time,field.header.seq,field.header.stamp,field.header.frame_id,field.name0,field.name1,field.name2,field.name3,field.name4,field.name5,field.name6,field.position0,field.position1,field.position2,field.position3,field.position4,field.position5,field.position6,field.velocity0,field.velocity1,field.velocity2,field.velocity3,field.velocity4,field.velocity5,field.velocity6,field.effort0,field.effort1,field.effort2,field.effort3,field.effort4,field.effort5,field.effort6
15859000000,389,15851000000,,panda_joint1,panda_joint2,panda_joint3,panda_joint4,panda_joint5,panda_joint6,panda_joint7,-1.2748116807599423,-1.0182188677334256,1.7984333361686833,-2.5090708107274464,-1.7549413757562542,1.0041038630448211,1.3089494261851717,0.0016754751258254705,-0.00996474487379751,0.006164443034514038,-0.005124202064990769,0.016950839576838177,0.007751817817889753,0.005567429360298952,-0.16722291724773075,-17.782749281271283,20.201468357367045,-5.773738947543122,0.4559634905909862,2.214746419698949,-0.025823997912939305
15921000000,390,15890000000,,panda_joint1,panda_joint2,panda_joint3,panda_joint4,panda_joint5,panda_joint6,panda_joint7,-1.2748114136477042,-1.018209272134257,1.7984283822834861,-2.5090646968420414,-1.7549587424134314,1.0040958907134607,1.3089438230029904,-0.005488156288069988,0.006242963423398539,0.0007466895634026327,0.008487595257038736,-0.008009722770700146,-0.004415147946205322,-0.00514125325971944,-0.11957943053917601,-18.158909433692415,20.230358819873544,-6.1080321829111535,0.6069597287978425,2.2939168871160596,0.03542049550653476
15962000000,391,15956000000,,panda_joint1,panda_joint2,panda_joint3,panda_joint4,panda_joint5,panda_joint6,panda_joint7,-1.274808214948326,-1.018219631281422,1.7984356408272806,-2.5090691569983736,-1.7549420404986762,1.0041035129347682,1.3089493763899664,0.0016294862283484442,-0.009959537496623583,0.006140538120676685,-0.005151170070743376,0.01696294045033012,0.0077585081895260605,0.005568789001099731,-0.1664859341821439,-17.78312033092925,20.202184762572863,-5.773515824086418,0.4559077757127441,2.21475957385146,-0.025820129616670948
15996000000,392,15994000000,,panda_joint1,panda_joint2,panda_joint3,panda_joint4,panda_joint5,panda_joint6,panda_joint7,-1.2748043102707287,-1.0182159559503328,1.7984288318154817,-2.5090725003086574,-1.7549509658562616,1.004100155581404,1.3089489285759575,-0.004087917173302469,-0.006149728874905458,0.001677978206204688,-0.0025067334466788854,0.006904371882984863,0.0034395353195811563,0.0070550354023453995,0.1581150053558117,-17.73293119543776,20.053737120217278,-5.907638328701013,0.4588859505425412,2.203598345040469,-0.02946668999568583
16041000000,393,16029000000,,panda_joint1,panda_joint2,panda_joint3,panda_joint4,panda_joint5,panda_joint6,panda_joint7,-1.274804616582049,-1.0182159087271065,1.7984286576034627,-2.509072669251709,-1.754950878999737,1.004100170065807,1.3089489016865024,-0.004093143137028757,-0.006148445777086628,0.0016743713807277232,-0.0025090318568737396,0.006905057699132431,0.00343995744062512,0.0070548435718354365,0.157772787999032,-17.732860364432476,20.05352046933632,-5.907812258851473,0.4589154939095173,2.2036049667351865,-0.029468810326480657
16076000000,394,16065000000,,panda_joint1,panda_joint2,panda_joint3,panda_joint4,panda_joint5,panda_joint6,panda_joint7,-1.2748105377489143,-1.018209586675133,1.7984291376199995,-2.50906441041729,-1.7549587861730807,1.004095783524459,1.3089437300829978,-0.005540094732433814,0.006254077758181576,0.0007126660571277815,0.008462533893679272,-0.00799915189705093,-0.004410490098419491,-0.005141661702762051,-0.12059605250765824,-18.15878349846032,20.22980543783554,-6.108595387970717,0.6070493503934876,2.29394638414809,0.03541345473758571
16136000000,395,16121000000,,panda_joint1,panda_joint2,panda_joint3,panda_joint4,panda_joint5,panda_joint6,panda_joint7,-1.2748093627427872,-1.0182194645451164,1.7984350010740116,-2.509069799006422,-1.7549417293903398,1.0041035769190536,1.308949258570589,0.0016170837503168018,-0.00995608953970039,0.006131292002850444,-0.005156461558999512,0.01696427759605444,0.007759697699980854,0.005568483536591994,-0.1675587212678696,-17.782900523921263,20.201513759893817,-5.774068408599863,0.4560030540920524,2.214782313898402,-0.025826834747579155
16191000000,396,16172000000,,panda_joint1,panda_joint2,panda_joint3,panda_joint4,panda_joint5,panda_joint6,panda_joint7,-1.2748066056650211,-1.0182175122070989,1.7984305665880989,-2.5090748000508345,-1.754949843712847,1.0041023454509386,1.3089476043587691,0.0028775028365725583,0.0019324888651083018,-0.00436445909087139,-0.004939606286494155,-0.008130089738174088,-0.001244501225262457,-0.001633626904614591,0.04807750853790308,-18.27513120095666,20.367557831956596,-6.185904166998037,0.7098909127863205,2.3376558070287743,0.02800135955047153
16242000000,397,16222000000,,panda_joint1,panda_joint2,panda_joint3,panda_joint4,panda_joint5,panda_joint6,panda_joint7,-1.2748065380705293,-1.018217523717242,1.7984306067405136,-2.509074763558643,-1.7549498657577445,1.0041023431537788,1.3089475975016338,0.002879732911370039,0.0019321257720456423,-0.004363136992555548,-0.004938407881302516,-0.008130489009368509,-0.001244719451349566,-0.001633411463559093,0.04818530411219193,-18.275150382020676,20.367622099027667,-6.185845839376863,0.7098813140910392,2.3376532756674218,0.02800213437299398
16290000000,398,16268000000,,panda_joint1,panda_joint2,panda_joint3,panda_joint4,panda_joint5,panda_joint6,panda_joint7,-1.2748013170454104,-1.0182096185140832,1.7984264992946102,-2.5090705776203235,-1.7549576257198414,1.0040967925713735,1.3089417473176113,0.005114393019125028,0.00792222776736142,-0.004168527424379233,0.004129783500365684,-0.007734730098204945,-0.005542968979765018,-0.005850474610957909,0.0877029041115041,-17.917224156617863,20.049973537321666,-6.182517476621101,0.45692158963128726,2.247422970833154,-0.008090755722531902
16310000000,399,16303000000,,panda_joint1,panda_joint2,panda_joint3,panda_joint4,panda_joint5,panda_joint6,panda_joint7,-1.274801253665732,-1.0182096286037163,1.7984265361479697,-2.5090705433769624,-1.7549576392923694,1.0040967869805728,1.308941748892929,0.005113660710326832,0.007922351606678594,-0.004168958582511835,0.00412939199159512,-0.0077345306243154655,-0.005542928517576833,-0.005850469413779225,0.0877196309657301,-17.91722776312582,20.049983585144012,-6.182508123091127,0.45692007581943483,2.2474225240013337,-0.008090635988279339
16349000000,400,16342000000,,panda_joint1,panda_joint2,panda_joint3,panda_joint4,panda_joint5,panda_joint6,panda_joint7,-1.2748063312815496,-1.0182175569190104,1.7984307273148072,-2.5090746519556273,-1.7549499117278504,1.004102325809817,1.3089476008098089,0.002878020412095953,0.0019324174021573054,-0.004364142328008917,-0.004939320445061706,-0.008129974651403098,-0.0012446470445354684,-0.0016333425336609363,0.04826037330548426,-18.275165764117816,20.367666735407518,-6.185804411024793,0.709874581190697,2.337651346521848,0.028002687397929788
16383000000,401,16381000000,,panda_joint1,panda_joint2,panda_joint3,panda_joint4,panda_joint5,panda_joint6,panda_joint7,-1.2748092005599192,-1.0182194900913695,1.7984350946759378,-2.50906970952025,-1.754941781385586,1.004103569066669,1.3089492345707106,0.0016219290697418753,-0.009956943741141668,0.006134218618874008,-0.005153903765824266,0.016963435242256006,0.007759246491306155,0.005569072903373128,-0.16731435451206803,-17.78294330418628,20.201658461117148,-5.773936943053931,0.4559809279192169,2.214776381403838,-0.025825251523594533
16438000000,402,16430000000,,panda_joint1,panda_joint2,panda_joint3,panda_joint4,panda_joint5,panda_joint6,panda_joint7,-1.2748108432701457,-1.0182095300539116,1.7984289493129317,-2.509064565906132,-1.7549587394420554,1.0040958107222648,1.3089436648349437,-0.005529977991748658,0.006252280153444016,0.0007187763980254702,0.008467801192301725,-0.008001416436241358,-0.004411178162625641,-0.005140849242082311,-0.12048080839554834,-18.158797415056632,20.22987160093857,-6.108533654740114,0.6070392490420509,2.2939437468527695,0.03541426728660028
16489000000,403,16468000000,,panda_joint1,panda_joint2,panda_joint3,panda_joint4,panda_joint5,panda_joint6,panda_joint7,-1.27480124855375,-1.01820962908665,1.798426538780486,-2.5090705407204794,-1.7549576357700722,1.0040967839958554,1.3089417489608515,0.005111777392592942,0.00792264421671409,-0.004170045445982004,0.004128376069483997,-0.0077341440816241815,-0.00554275401526191,-0.005850538161761128,0.08766680899186813,-17.91721940571302,20.049952675417913,-6.182536907853031,0.4569247951044295,2.2474237945589257,-0.00809099267439368
16532000000,404,16515000000,,panda_joint1,panda_joint2,panda_joint3,panda_joint4,panda_joint5,panda_joint6,panda_joint7,-1.2748108777381795,-1.018209524649607,1.798428929398412,-2.5090645846388693,-1.7549587317253579,1.0040958136022278,1.3089436627163824,-0.005529705001701518,0.0062522343536682975,0.0007189370535896416,0.008467947921793874,-0.008001496963251085,-0.0044111871466695415,-0.005140844136988369,-0.12049377393185311,-18.158794803824144,20.229864004878316,-6.1085406542866005,0.6070403816437671,2.293944071765163,0.035414175854516644
16573000000,405,16573000000,,panda_joint1,panda_joint2,panda_joint3,panda_joint4,panda_joint5,panda_joint6,panda_joint7,-1.2748012696330484,-1.018209625837014,1.7984265266592878,-2.509070552161253,-1.7549576318193347,1.0040967861691223,1.3089417470974825,0.005112246482718243,0.007922570276064413,-0.004169774989387048,0.004128630179844504,-0.007734256677456251,-0.0055427890033387574,-0.005850517673499147,0.08766794311681265,-17.917219249906797,20.049953221692288,-6.182536337162692,0.4569246971450663,2.247423778342919,-0.00809098621880273
16620000000,406,16609000000,,panda_joint1,panda_joint2,panda_joint3,panda_joint4,panda_joint5,panda_joint6,panda_joint7,-1.2748053570387805,-1.0182157764723776,1.7984282087982884,-2.5090730541760236,-1.7549507302744178,1.0041002254393154,1.3089488026620755,-0.004082351443010776,-0.0061502805299638984,0.0016808203123582603,-0.002503201912336794,0.006902266199421085,0.0034393377820048374,0.007055675719369221,0.15764597330808366,-17.732821971904027,20.05343329887285,-5.907877695666714,0.4589266659752954,2.203607325424892,-0.029469567018088963
16674000000,407,16661000000,,panda_joint1,panda_joint2,panda_joint3,panda_joint4,panda_joint5,panda_joint6,panda_joint7,-1.2748092511520364,-1.0182194821034294,1.7984350653817813,-2.5090697369959676,-1.7549417697173597,1.0041035730821442,1.308949230951872,0.0016221926926199182,-0.00995698637818512,0.006134373547305207,-0.005153761604015146,0.016963339927504446,0.007759244129310434,0.005569076727255037,-0.1673373403925503,-17.782938934050097,20.20164494781956,-5.773949656676835,0.4559830473472558,2.2147769968599005,-0.025825399858018103
16715000000,408,16695000000,,panda_joint1,panda_joint2,panda_joint3,panda_joint4,panda_joint5,panda_joint6,panda_joint7,-1.2759262267699114,-1.0184208112128506,1.799234691627726,-2.5080307142754474,-1.7542362445810618,1.003310592989096,1.3093517649104474,-0.08015816433913422,-0.011284639235317005,0.050563849571500306,0.07646915701354796,0.016035129398623105,-0.022795005829654123,0.015912571654773652,1.4175888647455348,-17.58159995005022,19.616855999715607,-6.697526240510498,0.736887913214118,2.067571841734694,0.03049737423116819
16729000000,409,16729000000,,panda_joint1,panda_joint2,panda_joint3,panda_joint4,panda_joint5,panda_joint6,panda_joint7,-1.280829202652253,-1.0196261197003924,1.8025216605005223,-2.503807486037041,-1.7529971064068928,1.0026631713331975,1.3105988025609383,-0.21151406815693208,-0.06123290041608272,0.1377572937721126,0.1708815766644947,0.047591417607401425,-0.01124151959778999,0.0542353174473538,2.4688104774206177,-16.897452728937957,19.50762409882603,-6.390456063246786,0.5849860307645256,1.9390406860129175,-0.02799597260051887
16767000000,410,16767000000,,panda_joint1,panda_joint2,panda_joint3,panda_joint4,panda_joint5,panda_joint6,panda_joint7,-1.291310767999171,-1.022633097316632,1.8091798596783732,-2.4953693013985445,-1.7512117657058663,1.0022905132114541,1.3127986903456863,-0.3345827601883951,-0.09919899443130079,0.2049861711756967,0.26002254650942724,0.04602223214442076,-0.007050118272439523,0.06559909321726794,2.2225932324183533,-17.84520838838165,20.212282207003973,-6.227484287974984,0.7646641719965299,2.1066053180268867,0.03265575452744719
16801000000,411,16801000000,,panda_joint1,panda_joint2,panda_joint3,panda_joint4,panda_joint5,panda_joint6,panda_joint7,-1.3043068488758127,-1.0266308895537257,1.8170702218888195,-2.485265530273958,-1.7489631177468068,1.002253147494871,1.314842440767939,-0.4181526032204283,-0.140166561449651,0.256630619256083,0.32115269157417636,0.09437093347023341,0.00814423727622535,0.06294062699392049,1.3739314155682827,-17.945997372387648,20.309629343949243,-5.8844881883916,0.503830367970705,2.0618698037805814,-0.02240027427571848
16874000000,412,16858000000,,panda_joint1,panda_joint2,panda_joint3,panda_joint4,panda_joint5,panda_joint6,panda_joint7,-1.3309372075439985,-1.03514160079939,1.8326198346395302,-2.464407955916845,-1.7442770425692595,1.0026670256430847,1.3179916227246737,-0.4715431334118921,-0.15394474983076167,0.26559649931125584,0.37678027177097995,0.06126055786167879,0.017673460828038917,0.04004067227617761,-0.41262509711383133,-19.399531151411967,21.013289832032434,-5.3642148734405986,0.383128427550421,2.320188289377771,-0.006257630026656934
16915000000,413,16894000000,,panda_joint1,panda_joint2,panda_joint3,panda_joint4,panda_joint5,panda_joint6,panda_joint7,-1.3467083680107486,-1.0407024622537993,1.8413452220967876,-2.4522241233290565,-1.7420541002501162,1.0035620647522379,1.3193374720754605,-0.4001575777920382,-0.14823574219697166,0.2154967268011592,0.30194400970458124,0.06205167934278692,0.026774731952151715,0.03381098849847007,-1.4507978290204222,-20.10020081786189,21.276107358456848,-5.179548993565336,0.3542123488681336,2.4006277506438947,-0.03021517345185477
16940000000,414,16930000000,,panda_joint1,panda_joint2,panda_joint3,panda_joint4,panda_joint5,panda_joint6,panda_joint7,-1.358731186433765,-1.0450784883514554,1.8477639450778192,-2.4430870893858714,-1.7403294870826027,1.004363671676101,1.3201100910349384,-0.2775961258585587,-0.09405840676383723,0.14519096426429345,0.21180228390091166,0.0341260977285456,0.016383729960133837,0.01200411084759051,-2.490572983624646,-21.065487886836923,21.5957904037868,-5.233595772255699,0.47455135913257385,2.5316714393620976,0.028531975929142705
16978000000,415,16968000000,,panda_joint1,panda_joint2,panda_joint3,panda_joint4,panda_joint5,panda_joint6,panda_joint7,-1.366384452322352,-1.047909954766066,1.851689592907423,-2.437424682649043,-1.739261286208155,1.0050056759309793,1.3205188238516437,-0.12166829440171294,-0.03971907690480229,0.05869971982970799,0.09162928828556828,0.005964775096599921,0.01092705267315442,-0.0017985090915304744,-2.5635151167960544,-21.12166304426837,21.480370333070766,-5.457272269520433,0.29603554519971537,2.5632070450885176,-0.016100316515511016
17008000000,416,17004000000,,panda_joint1,panda_joint2,panda_joint3,panda_joint4,panda_joint5,panda_joint6,panda_joint7,-1.3712863726575168,-1.049342970656646,1.8545890529656202,-2.4331519992181105,-1.7374661969010017,1.0045085110975238,1.3208165800198461,-0.1794289506466833,-0.05321623037835619,0.11148156640122808,0.17595331771422296,0.0670868355228357,-0.020758935635009163,0.016900371092362143,1.1666840255865079,-18.88066021351534,20.044589097357864,-7.287123273065935,0.749739805645586,2.010560126332495,-0.03416410602164338
17051000000,417,17041000000,,panda_joint1,panda_joint2,panda_joint3,panda_joint4,panda_joint5,panda_joint6,panda_joint7,-1.3798230259407838,-1.0520429261343107,1.8600730998389512,-2.4241423658224486,-1.7352868887392061,1.0039021796958343,1.3212789122844502,-0.28562507694502737,-0.11162812622468057,0.18749999242483323,0.30082469889344443,0.0707256615050066,-0.0023016446272062147,0.018952810503699867,1.4695046271238381,-18.860346612053014,20.442144198320115,-6.273341453568226,0.6506242826315991,1.998267558961167,-0.023083016049500246
17084000000,418,17078000000,,panda_joint1,panda_joint2,panda_joint3,panda_joint4,panda_joint5,panda_joint6,panda_joint7,-1.3908743361544378,-1.0565167857629891,1.8669398728084268,-2.4126324356408357,-1.7340529308376196,1.0043133229133927,1.3215117393186802,-0.2716216504363978,-0.1179562193699667,0.1658127374081691,0.28116740738613366,0.00906824487469765,0.02031353063053822,-0.0017006768614679785,-0.5822958139000798,-20.976553195126403,21.766094475774885,-4.517888407327409,0.2618647742735406,2.3678940017334447,-0.002845658021644894
17125000000,419,17117000000,,panda_joint1,panda_joint2,panda_joint3,panda_joint4,panda_joint5,panda_joint6,panda_joint7,-1.3995976094821163,-1.060755115628048,1.8721907001269251,-2.4043382575723955,-1.7335330263286632,1.0052605823448122,1.321605443600765,-0.16273689031959895,-0.0822769232952437,0.09480941829981272,0.13988891755648705,0.003816608983808749,0.01973564022199372,-0.0003646678660672903,-1.426814134581966,-22.396491766882985,22.530916992934017,-4.519947859722246,0.46170864641469583,2.5534280245970913,0.02721174667007369
17152000000,420,17153000000,,panda_joint1,panda_joint2,panda_joint3,panda_joint4,panda_joint5,panda_joint6,panda_joint7,-1.4034678117936394,-1.0627271391580138,1.874459724346302,-2.4013225820739823,-1.7330421547422201,1.005740440872252,1.321598821716523,-0.07522427528298381,-0.02353342889836209,0.046868089711444794,0.06463642680603723,0.03311960867063433,-0.012542434903230343,-0.008519332990924552,0.20310575668768144,-21.160659059136737,21.434003705700416,-6.709249425381761,0.5227224272966647,2.2471998045783046,-0.007527051234810473
17207000000,421,17198000000,,panda_joint1,panda_joint2,panda_joint3,panda_joint4,panda_joint5,panda_joint6,panda_joint7,-1.4096948730976155,-1.0646862987543901,1.878206032763451,-2.395051963783115,-1.7308147993717142,1.0051139560485716,1.3213857228744974,-0.19602672315824207,-0.05962820792135738,0.11614327282960732,0.2206346596681581,0.04155900885387371,-0.013421708259015674,-0.011946974454372646,1.6113776152401451,-19.853010867054394,20.785871906953265,-6.937663646864432,0.7017741230030438,2.0242771874016765,-0.007441088378363385
17231000000,422,17231000000,,panda_joint1,panda_joint2,panda_joint3,panda_joint4,panda_joint5,panda_joint6,panda_joint7,-1.4180457227984586,-1.067825639949806,1.8830701561560659,-2.38598593282613,-1.7293264925311913,1.0050363898324894,1.3211240747709887,-0.29624762317053105,-0.12987578905136626,0.17572535609860804,0.3187222687130229,0.05809340621760992,0.00976428064637597,-0.006158909163356412,1.3809157985002487,-19.969802013277043,21.077728461659582,-5.990036398623487,0.6272093841925334,2.022338364075071,-0.007845202516989976
17275000000,423,17270000000,,panda_joint1,panda_joint2,panda_joint3,panda_joint4,panda_joint5,panda_joint6,panda_joint7,-1.4306406784453127,-1.073343580426787,1.8902292177221423,-2.372471758518955,-1.7280553015644813,1.0056984264891895,1.3203592418104968,-0.3225170062090722,-0.14563436539858027,0.18021023692442376,0.33989225931753136,0.012009326615309387,0.028462189191058633,-0.023233757203889836,-0.6672485584584094,-22.048554182551683,22.167599918073297,-4.322428099674716,0.44509512293811826,2.330365281302061,0.03225909073398801
17314000000,424,17308000000,,panda_joint1,panda_joint2,panda_joint3,panda_joint4,panda_joint5,panda_joint6,panda_joint7,-1.4411921514222499,-1.0786547692248956,1.896071609451674,-2.361809523955335,-1.7275707764426986,1.0069286053255375,1.3196206261593222,-0.22047375604898847,-0.11023015056166818,0.1210842453374352,0.22068259403427062,0.005422905108976854,0.02630681832882534,-0.025048467752191158,-1.2858639024875766,-23.01637408145944,22.58935869552126,-4.6229659955745355,0.2518384257368911,2.4499466806475727,-0.005803634560926631
17344000000,425,17341000000,,panda_joint1,panda_joint2,panda_joint3,panda_joint4,panda_joint5,panda_joint6,panda_joint7,-1.4471371562666757,-1.081790865567772,1.8992915311808574,-2.356286660425549,-1.7271659360840879,1.007760973197927,1.319103815583226,-0.1324338349026571,-0.08116755379912483,0.0739254188470089,0.11484292958525591,0.023718052266372726,0.027320779390695563,-0.006626939018597127,-1.8639190109886408,-23.285253198996543,22.940156808521042,-4.451643030957083,0.31846631207581755,2.483790870533551,-0.02463448340326207
17407000000,426,17388000000,,panda_joint1,panda_joint2,panda_joint3,panda_joint4,panda_joint5,panda_joint6,panda_joint7,-1.45239901227251,-1.0840650665965939,1.902166414905297,-2.351259450600643,-1.7258801830351924,1.007893504071533,1.3184262032092295,-0.11330943479466402,-0.03692405917537785,0.059809324309478135,0.13359389462972496,0.011890051087091432,0.0009810337595192445,-0.01992430290031979,-0.4151049247748202,-22.272373978242072,22.103882601358592,-5.688736632422916,0.5293306772750684,2.271661878878911,-0.01202987233473781
17488000000,427,17478000000,,panda_joint1,panda_joint2,panda_joint3,panda_joint4,panda_joint5,panda_joint6,panda_joint7,-1.4628602882434851,-1.0883581601747991,1.9079598128358164,-2.338595094710933,-1.7241097714099434,1.0078969502287034,1.3166975332189423,-0.1934571067605118,-0.07870083646902508,0.1106805244443211,0.2544167250255123,0.021236817917199346,-0.001268210567955631,-0.04032499984098255,1.4410772095419173,-21.265247514355238,21.423843332681777,-6.535839254874955,0.6576436609014467,2.038852877501719,-0.004147500556631316
17546000000,428,17542000000,,panda_joint1,panda_joint2,panda_joint3,panda_joint4,panda_joint5,panda_joint6,panda_joint7,-1.4798311493831573,-1.0967247420774147,1.9173556463439247,-2.317649683254696,-1.722988761302954,1.0090723596689015,1.3136024654372953,-0.27841527204220207,-0.1518784879848821,0.14955062393459667,0.33214919697195644,-0.008798861187352056,0.034574006587029006,-0.051165639588327115,-0.3513044345137996,-23.593583796208147,22.792382795333474,-4.392432034719449,0.5466254090950804,2.3699781941255544,0.025193118302897246
17578000000,429,17578000000,,panda_joint1,panda_joint2,panda_joint3,panda_joint4,panda_joint5,panda_joint6,panda_joint7,-1.4886390026661704,-1.1017754588328117,1.9221140283695703,-2.3073779836439288,-1.7231030972181776,1.0103826843634343,1.3119424376510729,-0.1936617452292798,-0.11142880275624878,0.10522893528593126,0.2264401438680812,-0.008816254473700949,0.031046264772169964,-0.04628256003869298,-1.0988964074999348,-24.40217077262252,23.191379740965996,-4.410850080108782,0.23698770209225586,2.4376368646707,-0.004922646491526481
17615000000,430,17613000000,,panda_joint1,panda_joint2,panda_joint3,panda_joint4,panda_joint5,panda_joint6,panda_joint7,-1.4940962647906968,-1.1050824238183665,1.9250535754952587,-2.3014479223722315,-1.7230904237982188,1.0113566846753725,1.3108332845404966,-0.09917005425977114,-0.057229913194403785,0.05309330106657177,0.10840823029319999,-0.00827506184720312,0.019926446563787004,-0.0253917567956412,-1.4957598562135694,-24.894766643153673,23.446573886136754,-4.436799342350021,0.23351591688550094,2.4932201718520393,-0.0053068744499704295
17686000000,431,17652000000,,panda_joint1,panda_joint2,panda_joint3,panda_joint4,panda_joint5,panda_joint6,panda_joint7,-1.4985869194704087,-1.1073071993814825,1.927525066804833,-2.296391729228363,-1.7220573573724884,1.0115376850948499,1.3094756858534424,-0.14227262120245926,-0.06021921735842941,0.07384463657664228,0.17649376574300082,0.025104983714346447,-0.0010621861769114635,-0.04717117382930976,0.7339735606186752,-23.349880136209414,22.53923151581232,-6.8145607272760405,0.9283761767157079,2.183482395176619,0.019699916790943222
17695000000,432,17687000000,,panda_joint1,panda_joint2,panda_joint3,panda_joint4,panda_joint5,panda_joint6,panda_joint7,-1.5046399376448836,-1.1100835770560558,1.9305334480711327,-2.2883993034168295,-1.721556592235574,1.011927740670962,1.307586593202112,-0.1730614229672653,-0.08755850708016362,0.08095474777090665,0.23084406037059543,-0.0171209699647984,0.022005136285762544,-0.04850675808556405,-0.597137460990896,-24.21741790606615,22.98532708550295,-4.7613469350356565,0.6368483189952355,2.369352074579422,0.018042285733430297
17751000000,433,17745000000,,panda_joint1,panda_joint2,panda_joint3,panda_joint4,panda_joint5,panda_joint6,panda_joint7,-1.5117465434277282,-1.114141848392178,1.9340351623895131,-2.2790554293299277,-1.721949043674094,1.0129563766127516,1.3056520867498165,-0.09840391272654975,-0.044825616009111224,0.055372313520699254,0.13176437696325366,0.017136293454399095,-0.00036952162858075975,-0.04253618892295896,0.08870641356404031,-24.058540121444437,22.731173434944598,-5.992801763200369,0.6682041463453539,2.1848837356331683,0.02846556627320784
17780000000,434,17779000000,,panda_joint1,panda_joint2,panda_joint3,panda_joint4,panda_joint5,panda_joint6,panda_joint7,-1.5146661625824205,-1.115771291733724,1.935550594615508,-2.2751428825393667,-1.7219607981759353,1.0133554766349917,1.3047895362999533,-0.06798117231152896,-0.044350303864799746,0.03242181075825319,0.07854341212677778,-0.010822229759011245,0.016118259214299695,-0.009023487003858877,-0.7007197856632574,-24.630611259746175,23.27109567645474,-4.542274230271883,0.25160051243015036,2.406006589343763,-0.01655697535891259
17839000000,435,17833000000,,panda_joint1,panda_joint2,panda_joint3,panda_joint4,panda_joint5,panda_joint6,panda_joint7,-1.5195470886197207,-1.1181811925443519,1.938191527894661,-2.2682435065911912,-1.721126173980398,1.0134625790933933,1.302528693128254,-0.13783634304397366,-0.06140577019906534,0.07067351125767088,0.21137854016982072,0.006174734411004794,0.005072485065678249,-0.06693614679004364,1.1480920792988356,-23.218504862809798,22.41166456883139,-6.7306631406601145,0.6974862960296394,2.0767701661813036,-0.004289392641405217
17867000000,436,17867000000,,panda_joint1,panda_joint2,panda_joint3,panda_joint4,panda_joint5,panda_joint6,panda_joint7,-1.5258875573035997,-1.1214382087007042,1.9413188693378274,-2.2590786229888113,-1.720947892596251,1.013978009147385,1.299992671332772,-0.21565786722118863,-0.11606902172896302,0.10324326306315114,0.3101929092031543,-0.01088504934626338,0.023605102198163124,-0.0947101724492932,0.7237639888520592,-23.919739379094665,22.725055473820838,-6.115458234725794,0.8709853368589684,2.151716837090003,0.022734664808725182
17916000000,437,17909000000,,panda_joint1,panda_joint2,panda_joint3,panda_joint4,panda_joint5,panda_joint6,panda_joint7,-1.5363510232975663,-1.1273541838703593,1.9463388818072627,-2.2439560212470866,-1.7213638598556615,1.0153539717489428,1.2956302801525101,-0.2791060392941172,-0.1650541180556428,0.12903884802619137,0.3934771713857412,-0.01756758632972985,0.041449191724733075,-0.10088269635797328,0.3550991938607033,-24.271281010012803,22.915186799676917,-5.136408280897836,0.4836071119372216,2.198142321010133,-0.027786647578671497
17978000000,438,17957000000,,panda_joint1,panda_joint2,panda_joint3,panda_joint4,panda_joint5,panda_joint6,panda_joint7,-1.547576028365997,-1.1344502692494238,1.9516818845819017,-2.2278196517312248,-1.7226726193469384,1.0175567191290424,1.2908990151203525,-0.1891105011331466,-0.12510938366970664,0.09082455697462613,0.26881388170478043,-0.02973036871922559,0.03883001954793767,-0.08320768993493827,-1.0020943919690297,-26.53308628703764,23.930109531179,-4.267278103537296,0.4854019560029174,2.4522981388597622,0.019721872693054327
17991000000,439,17990000000,,panda_joint1,panda_joint2,panda_joint3,panda_joint4,panda_joint5,panda_joint6,panda_joint7,-1.552705101723511,-1.1379056382194825,1.9542149514112097,-2.220505944956825,-1.7232792133458537,1.0187184565533824,1.288583463992607,-0.11718967341038773,-0.07510848684833092,0.06036466544958616,0.16909249646723504,-0.017560326522469777,0.029558892813574905,-0.06044810140884503,-1.5365847864579676,-26.875884183448672,24.203125114197285,-4.099192605064218,0.36101623015908724,2.445932547499222,0.019051454253088032
18025000000,440,18024000000,,panda_joint1,panda_joint2,panda_joint3,panda_joint4,panda_joint5,panda_joint6,panda_joint7,-1.5556570915387748,-1.1399393197554666,1.9557605223185561,-2.216271818730693,-1.723450388899325,1.019395200610175,1.2869723920235376,-0.08947055923818709,-0.0533986973087137,0.04309835107205106,0.12392926366331566,0.01631851000826376,0.007579378776238099,-0.053516569822920794,0.4980839021726677,-25.452605943000087,23.605329694933374,-6.459617860088908,0.5841982497457302,2.23229057422646,-0.02176538882862727
18090000000,441,18078000000,,panda_joint1,panda_joint2,panda_joint3,panda_joint4,panda_joint5,panda_joint6,panda_joint7,-1.5605997740277981,-1.1426408853744814,1.9579602006960197,-2.208236473999884,-1.7236559944932273,1.0201443574225504,1.2839477208675891,-0.05538164966527752,-0.03087187248684977,0.02101337696752683,0.10695610374158586,-0.029762804248637094,0.015297962280415134,-0.029232724233893427,-0.9156207280000314,-26.47820846378097,23.89899466597591,-4.076813455682266,0.21951665771198794,2.408462676782094,-0.004816223446434209
18124000000,442,18118000000,,panda_joint1,panda_joint2,panda_joint3,panda_joint4,panda_joint5,panda_joint6,panda_joint7,-1.5634195813804848,-1.14423144785283,1.9591808552079648,-2.2034290587019996,-1.7237094192803868,1.0204903479686465,1.2817892650694507,-0.086855777895519,-0.04008455820293147,0.03736008461298029,0.16324394702857617,-0.0028976332076520034,0.007814268088665168,-0.08243803196266188,0.811690769240198,-25.0948634194463,23.261464727404825,-6.835335831363734,0.700607200680113,2.11599364100638,-0.0038068755759528036
18183000000,443,18164000000,,panda_joint1,panda_joint2,panda_joint3,panda_joint4,panda_joint5,panda_joint6,panda_joint7,-1.569941015572324,-1.1478151568069048,1.9618261308366787,-2.192322939653071,-1.724244923637107,1.0214525226960856,1.277212035843041,-0.18766631345501233,-0.11018207052215559,0.07073989518732401,0.30714684652539803,-0.02667793496276785,0.03259233273709319,-0.10776000802008608,0.46077408676775283,-25.218364944578216,23.31054031827873,-5.724286461999291,0.6227546352942916,2.147456570830728,-0.021724274795672724
18217000000,444,18206000000,,panda_joint1,panda_joint2,panda_joint3,panda_joint4,panda_joint5,panda_joint6,panda_joint7,-1.576311417613816,-1.1520059813077914,1.9643330570300996,-2.1813936071083146,-1.7259945797554366,1.023096246166153,1.2733122060969997,-0.11928638765715852,-0.09733577681578995,0.05203708932013387,0.20451286541954372,-0.02202840632481763,0.037876011764890444,-0.06523767702019406,-0.7631898841508319,-26.801840254613246,24.0267313656772,-4.1449105314150225,0.2745758630328137,2.3813529922076317,-0.016093765102797034
18239000000,445,18239000000,,panda_joint1,panda_joint2,panda_joint3,panda_joint4,panda_joint5,panda_joint6,panda_joint7,-1.5790863795397954,-1.154139762689173,1.9656270456702671,-2.1766028314731294,-1.7267731390477268,1.0239093122363787,1.2715607826101856,-0.08209986278898325,-0.058951394966156916,0.04014044052213833,0.12666808360841308,0.002479923606877866,0.013248006697609472,-0.06082437934657868,0.6335825271947754,-26.262303549704136,23.83583914895884,-6.261402523733324,0.4927504846733126,2.223759117967149,-0.008029802256207932
18278000000,446,18277000000,,panda_joint1,panda_joint2,panda_joint3,panda_joint4,panda_joint5,panda_joint6,panda_joint7,-1.5811828566042703,-1.1556711621406777,1.966707286825418,-2.172877613480848,-1.7271039963231622,1.024497763238065,1.2699528483680211,-0.03220917725807126,-0.026070933940228195,0.019322047938380053,0.055266429650751764,-0.01494001812392247,0.010335712074457243,-0.03463670321498595,-0.20574644036767503,-27.36236443890252,24.33403115772209,-5.301698260935451,0.5654273673201355,2.3791468722690747,0.0397386016019419
18333000000,447,18315000000,,panda_joint1,panda_joint2,panda_joint3,panda_joint4,panda_joint5,panda_joint6,panda_joint7,-1.5834668972780825,-1.1570055597787903,1.9677584630787113,-2.16870970360441,-1.7270258353227135,1.024890222733303,1.2673702563476024,-0.09091680180846007,-0.04326765499033569,0.03648322878736032,0.16858230967436283,-0.010116454823713029,0.0173240921883701,-0.0948853334907909,0.32716081296919797,-26.233654194077882,23.852431436672923,-6.591638287476887,0.8264509238458482,2.1387427314191285,0.020930030121181224
18380000000,448,18362000000,,panda_joint1,panda_joint2,panda_joint3,panda_joint4,panda_joint5,panda_joint6,panda_joint7,-1.5897582315861847,-1.1606847658768817,1.9699540384395,-2.157201291685043,-1.7282894844775525,1.0263486840314915,1.2618734269231737,-0.15119306022053294,-0.09548768176924022,0.04738625301126076,0.28053632650634286,-0.05985213349666959,0.044449391478947456,-0.12429994239857216,-0.4362224846239925,-27.193730192038704,24.034402786087586,-5.208114837135458,0.6960001703161562,2.3281714009293326,0.00828856455466634
18398000000,449,18396000000,,panda_joint1,panda_joint2,panda_joint3,panda_joint4,panda_joint5,panda_joint6,panda_joint7,-1.594265524734455,-1.1637556575278403,1.9714173230505825,-2.1486675445247627,-1.7300645489617397,1.0277923280079229,1.2584435169956851,-0.10779584735560442,-0.0897450432778897,0.038968514975368476,0.20729936453239345,-0.030568506470940525,0.03965484929873276,-0.07588111924528952,-0.702716285606672,-27.464104873226376,24.21626591556972,-4.313761149746414,0.2857433615116268,2.3736888051526575,-0.01512192646236248
18452000000,450,18438000000,,panda_joint1,panda_joint2,panda_joint3,panda_joint4,panda_joint5,panda_joint6,panda_joint7,-1.5971650688737036,-1.1660136181457847,1.9725841878716288,-2.1428149437665454,-1.7311329347392466,1.028777988734733,1.2559029454952206,-0.043375408665104906,-0.02869533162153796,0.019561269924673403,0.10988356066308946,-0.012457099423977346,0.014093657805702863,-0.0691906535987031,0.07555366204973445,-27.35086329039611,24.189625107670967,-5.647501345512964,0.5104386684807376,2.233309484457557,-0.011674618812695362
18481000000,451,18479000000,,panda_joint1,panda_joint2,panda_joint3,panda_joint4,panda_joint5,panda_joint6,panda_joint7,-1.5999284602075434,-1.1678359905245923,1.9737135181773446,-2.1371601001267173,-1.7316311249327931,1.0296275300888222,1.252404168483002,-0.10812086484849655,-0.06604596739858133,0.03615461820031517,0.2004258869184955,-0.01723346192324343,0.026908721530041608,-0.11149384162674317,0.8857599860583663,-26.528388577052002,24.045160539332873,-7.08005588147228,0.7412267115820823,2.1477305024331015,-0.02721557795038295
18524000000,452,18515000000,,panda_joint1,panda_joint2,panda_joint3,panda_joint4,panda_joint5,panda_joint6,panda_joint7,-1.6032602577202173,-1.1700086893239323,1.974757379082419,-2.1303025707328267,-1.732962300674945,1.0307741317976271,1.2491859499476448,-0.07194859950195892,-0.046406732133881856,0.022907084753677604,0.1566828720129804,-0.04254355506354733,0.029060119147079216,-0.06478675810935439,-1.0267476138505514,-28.24580583760719,24.48172219286969,-4.004795934265362,0.35945697202089166,2.356882118967637,0.011027913374041439
18552000000,453,18549000000,,panda_joint1,panda_joint2,panda_joint3,panda_joint4,panda_joint5,panda_joint6,panda_joint7,-1.6050609557859499,-1.1713996711958181,1.9753637272839786,-2.1263210629978815,-1.7338318720283024,1.0314717156361413,1.2472846852102233,-0.06507190465302136,-0.04451546370622246,0.020927157686236392,0.12426816979008191,-0.009672737423757634,0.016782948433798565,-0.07537216132660199,0.7055700166481564,-27.15290264193255,24.204190839577127,-6.51304829870033,0.5914952018055482,2.1906381648920945,-0.010051521439510974
18590000000,454,18584000000,,panda_joint1,panda_joint2,panda_joint3,panda_joint4,panda_joint5,panda_joint6,panda_joint7,-1.6076922281968766,-1.173068828785766,1.9761978356771284,-2.120685738272371,-1.7345075151873814,1.032372985749742,1.2436047652697972,-0.11122257419271024,-0.06886089388659279,0.02945800964779911,0.2165993396665732,-0.03284541736956298,0.03432346683052155,-0.11234526880379386,0.46813035699750166,-27.09979848746081,24.191447892059454,-6.37482074510293,0.6597360164424677,2.203757937916696,-0.04367843289410656
18622000000,455,18621000000,,panda_joint1,panda_joint2,panda_joint3,panda_joint4,panda_joint5,panda_joint6,panda_joint7,-1.6108557377190635,-1.1752268939918373,1.9770257853444342,-2.1138143241266087,-1.7361384647661957,1.033634428959739,1.2404308571136493,-0.06380205384669757,-0.05974432901334397,0.017553038635675047,0.1451603700384062,-0.026936627496310248,0.03109701683857577,-0.0512809284756149,-0.5756203065394757,-28.202705179561093,24.508388962326624,-4.2138033354496125,0.28397513911960376,2.3758373325395086,-0.022094369254762644
18672000000,456,18662000000,,panda_joint1,panda_joint2,panda_joint3,panda_joint4,panda_joint5,panda_joint6,panda_joint7,-1.612373346323757,-1.176479524218033,1.9775149507714005,-2.1099887081470072,-1.7369765895557823,1.0343481941465367,1.2382161616373875,-0.04418678198598483,-0.02866082463386138,0.014234326055396833,0.10545665196319606,-0.015714244856505768,0.016468047812850342,-0.09007632115765968,0.46811679604311585,-27.975221936081528,24.48299855140675,-6.742286555431324,0.8930612203479175,2.1999703550976837,0.025161748715689665
18715000000,457,18697000000,,panda_joint1,panda_joint2,panda_joint3,panda_joint4,panda_joint5,panda_joint6,panda_joint7,-1.614930341345632,-1.17809097272157,1.97820676192417,-2.10423168815743,-1.7378846908659957,1.0354018153054207,1.2343546356190416,-0.08479684214368316,-0.05458848394090041,0.01839031326427557,0.18984996880476582,-0.05341630993877901,0.03602874909082287,-0.10421020279242747,-0.2908019365257758,-28.42577318625942,24.545113027019813,-5.469173321517968,0.7153668398081563,2.3213435546082533,0.00438974113208802
18755000000,458,18739000000,,panda_joint1,panda_joint2,panda_joint3,panda_joint4,panda_joint5,panda_joint6,panda_joint7,-1.6175121149068001,-1.1799959289240736,1.9787600332350177,-2.098054272142349,-1.7397393051415184,1.0366392466891838,1.2316815950283644,-0.041214592997682285,-0.034422458752467765,0.009580230823762413,0.08907028788461642,-0.027623731194753948,0.015476882634944731,-0.028015431089866007,-0.11836287989858219,-28.435958527343885,24.53353317636822,-4.58170851060758,0.21377503662677355,2.337681611626944,0.00014676504411915915
18775000000,459,18774000000,,panda_joint1,panda_joint2,panda_joint3,panda_joint4,panda_joint5,panda_joint6,panda_joint7,-1.6187801035724565,-1.180958611147453,1.9791334113256376,-2.0946559489783017,-1.7402488536188798,1.0372964775354143,1.2289427625607754,-0.07324433171727385,-0.04604232815583925,0.017425736560924714,0.15358824320316147,-0.0200535156592506,0.02761115837774156,-0.10793654859758789,0.8198118885291251,-27.53706695928949,24.440725687735096,-7.265517884654966,0.7532917371586756,2.152600315433161,-0.018303412075686726
18836000000,460,18833000000,,panda_joint1,panda_joint2,panda_joint3,panda_joint4,panda_joint5,panda_joint6,panda_joint7,-1.62269680613195,-1.183678142008917,1.9798736585133412,-2.085002438063899,-1.7428069298377782,1.0393156662162646,1.2235376274829957,-0.020933575305044798,-0.018300092871708546,0.00033234922492572476,0.09295372838380052,-0.04495219039221568,0.01952910512169117,-0.03508045397693312,-0.6262767119209083,-29.105665719133814,24.640810266424186,-3.9714334817154704,0.13476143011985237,2.3775414828381978,-0.006860842363900538
18894000000,461,18867000000,,panda_joint1,panda_joint2,panda_joint3,panda_joint4,panda_joint5,panda_joint6,panda_joint7,-1.6235995883258525,-1.1844704217543924,1.9800864266524734,-2.082124534018007,-1.7434554792031935,1.0399206285591447,1.2213724557280212,-0.03887887712468871,-0.02652149934791782,0.008037261983174655,0.1090660897436439,-0.024833905017947463,0.023437241390901902,-0.10239092298228067,0.3855000191822042,-28.60505527501604,24.741718137831974,-6.904824423111064,0.9156372942848581,2.20525099911962,0.020837205684714973
18909000000,462,18902000000,,panda_joint1,panda_joint2,panda_joint3,panda_joint4,panda_joint5,panda_joint6,panda_joint7,-1.6259790200011874,-1.1860380219836113,1.98050899142814,-2.0761063743847297,-1.7447504744922124,1.0413024904618506,1.2167491973390998,-0.08630127696724664,-0.05667128082417278,0.010634490541182907,0.2149178125647177,-0.06433078327205904,0.04872874000007227,-0.14613087044512252,-0.1599933807410897,-28.894831530616347,24.739476984974424,-6.461888452776804,0.860419807258382,2.284673776784288,0.002471252761289471
18948000000,463,18939000000,,panda_joint1,panda_joint2,panda_joint3,panda_joint4,panda_joint5,panda_joint6,panda_joint7,-1.6287365191190482,-1.1880539713272196,1.9807725810884165,-2.068737428984141,-1.747173335651805,1.0430608308081633,1.2125651020172405,-0.06442500918296434,-0.049668831504988936,0.0043611013754245205,0.16697688516591117,-0.054741365404493494,0.03441121641142231,-0.07354236636733716,-0.32519032691311567,-29.062076727719155,24.63580061976261,-4.657384466557543,0.24641097129315492,2.3655072127226955,-0.032574647116830516
18989000000,464,18982000000,,panda_joint1,panda_joint2,panda_joint3,panda_joint4,panda_joint5,panda_joint6,panda_joint7,-1.6300939707335047,-1.1892372761521255,1.9808589314531826,-2.0636824482959018,-1.7487069119281706,1.0441616770590914,1.209453085934543,-0.0203289053738752,-0.01702548920929749,-0.00021770998205532938,0.09250377074033078,-0.03966010455631467,0.018289936210081254,-0.046915712513190114,-0.31231737052440567,-29.584443204756973,24.822261010212117,-4.436155044640637,0.497910217145114,2.3697636183892232,-0.0022379322245055446
19036000000,465,19036000000,,panda_joint1,panda_joint2,panda_joint3,panda_joint4,panda_joint5,panda_joint6,panda_joint7,-1.6316302496829618,-1.1904317116538916,1.981070759211196,-2.058168311737239,-1.7500869757876512,1.0455114127719183,1.2048673108454846,-0.0613159052163312,-0.0538765634764786,0.0064377520961217405,0.16951828780524814,-0.034715634095893635,0.05256211134865668,-0.14263910236086336,0.30691781685075686,-28.59184095491801,25.01002158616864,-7.430296263639536,0.7953469272538376,2.2160315978931653,-0.009372461410952665
19082000000,466,19078000000,,panda_joint1,panda_joint2,panda_joint3,panda_joint4,panda_joint5,panda_joint6,panda_joint7,-1.635008958483045,-1.1928258512904772,1.981160225678284,-2.048713176016234,-1.7531154302027776,1.0482044887290858,1.1974851073039332,-0.0764547456358032,-0.053771634483671275,-0.007245519146587467,0.25115675254524716,-0.10071513383421209,0.07415659094411128,-0.18829868629851215,-0.9298474693594905,-29.7111072472142,25.138292787103694,-6.235590673784035,0.565740198302982,2.299696577920872,0.001247131978035513
19155000000,467,19116000000,,panda_joint1,panda_joint2,panda_joint3,panda_joint4,panda_joint5,panda_joint6,panda_joint7,-1.637454389987239,-1.1947820026347262,1.9808675148317576,-2.040305316546519,-1.7563957504079202,1.0505354135754015,1.1920696950212086,-0.040698591101074114,-0.04643543753752073,-0.008177474004753223,0.1783149636170252,-0.05433466137185183,0.04622074240227515,-0.0998463589319337,-0.4893854755016664,-29.677060813573714,24.863429480632213,-4.875986515986231,0.2913922202121923,2.3684341549217547,-0.01614532928068481
19196000000,468,19156000000,,panda_joint1,panda_joint2,panda_joint3,panda_joint4,panda_joint5,panda_joint6,panda_joint7,-1.6381390207742133,-1.1954953163764674,1.9805522384348002,-2.035243766362596,-1.7581705227510849,1.051698476289662,1.188592223912595,-0.01695531541016113,-0.02818831890342649,-0.005720489609446116,0.12178845663449239,-0.025714170347439547,0.040082900095038114,-0.1110463947676199,0.30686221001908354,-29.202238651650205,25.05892157353361,-6.390153614491342,0.622099511000498,2.229932989900997,-0.03050818432502892
19248000000,469,19197000000,,panda_joint1,panda_joint2,panda_joint3,panda_joint4,panda_joint5,panda_joint6,panda_joint7,-1.6383415156223897,-1.1958374221638977,1.9802988560307178,-2.0316424602725967,-1.75954110519268,1.0525798759788918,1.186003768792638,0.0002985513121795079,-0.004653688425115736,-0.004753406844789252,0.06373785921873738,-0.027363729960681843,0.018541556102205776,-0.08502484810215116,0.6273517922645654,-29.659516054736226,25.109925663507916,-6.498589494852357,0.7914165552949297,2.180855945667656,0.045125016814142674
19251000000,470,19249000000,,panda_joint1,panda_joint2,panda_joint3,panda_joint4,panda_joint5,panda_joint6,panda_joint7,-1.6400158741114783,-1.1972002571711435,1.9799837543813723,-2.0246809295322645,-1.7620805281825191,1.0550112693976574,1.1792052454643525,-0.05944916424551605,-0.04500072840247746,-0.009004256026984112,0.1786964785290321,-0.07630931917383751,0.057659421800603114,-0.12245803371595314,-0.15821658595104554,-29.840949637115497,25.173971266886863,-5.890821295239387,0.42460268417030933,2.363567390721752,-0.03552996462244864
19292000000,471,19286000000,,panda_joint1,panda_joint2,panda_joint3,panda_joint4,panda_joint5,panda_joint6,panda_joint7,-1.6409061443919946,-1.1980371009043385,1.9795246654221899,-2.0200901397833384,-1.764215947603157,1.0563822245228716,1.1761828433956207,-0.010729544496981236,-0.023702835007496786,-0.009935897873413594,0.09052467204726594,-0.022822041641821295,0.02840251776293816,-0.07090199599965415,0.25338575392428864,-29.695883887542067,25.079500700643795,-5.887296529384438,0.45227198640932675,2.253751752950801,0.001764642895053062
19326000000,472,19323000000,,panda_joint1,panda_joint2,panda_joint3,panda_joint4,panda_joint5,panda_joint6,panda_joint7,-1.6414586302364658,-1.1985210776958057,1.9790819275722775,-2.016304946375965,-1.7657210132775276,1.0576689316164423,1.1725618211277133,-0.005108170120897501,-0.0019844886946976436,-0.015880397401092542,0.09854108039690168,-0.05156016040395921,0.03010586790052905,-0.07050892436447366,-0.020205626061058732,-29.99117124207206,24.981411280356767,-5.323962840297139,0.32513118403250774,2.322001356546245,-0.03231234198331961
19382000000,473,19375000000,,panda_joint1,panda_joint2,panda_joint3,panda_joint4,panda_joint5,panda_joint6,panda_joint7,-1.6419022973501205,-1.1989679631011363,1.9785492246542251,-2.012276921183913,-1.7674654112821422,1.0590882724264015,1.1685886170173774,-0.020583396651878676,-0.012635363102891137,-0.013722549278489243,0.11261521391092083,-0.05432639312101849,0.05641814261632973,-0.1478823770471282,-0.4748932477897944,-30.26385197507053,25.54273377101891,-7.265463547365894,0.8466990386775191,2.2131080362507825,0.020066260554227115
19415000000,474,19411000000,,panda_joint1,panda_joint2,panda_joint3,panda_joint4,panda_joint5,panda_joint6,panda_joint7,-1.6432472474932647,-1.2000553374327474,1.9778453795593656,-2.0065153163304874,-1.7701770678878415,1.0615534090747403,1.1627690784956517,-0.03893583676452456,-0.041746764423192737,-0.02142156165249388,0.17480020022179715,-0.07077643436266698,0.06463087826653033,-0.12940682723859256,-0.6931009167550828,-30.385757630486115,25.32582363320381,-6.0652462886843015,0.47309019374647576,2.378418112333636,-0.015983459128497683
19481000000,475,19454000000,,panda_joint1,panda_joint2,panda_joint3,panda_joint4,panda_joint5,panda_joint6,panda_joint7,-1.6436475260288912,-1.200509013576795,1.97684001434936,-2.0013409264904816,-1.772876678814768,1.0631901661085275,1.1590376751067542,-0.00677694558407565,-0.005224681001904545,-0.017333453571409422,0.09262664748147681,-0.03547498447907842,0.021793457962785156,-0.07068628804678784,0.44649572344992366,-29.81461691310888,24.953059309745395,-6.107343233867652,0.4416623647894908,2.215780497298433,-0.002322022107744417
19501000000,476,19492000000,,panda_joint1,panda_joint2,panda_joint3,panda_joint4,panda_joint5,panda_joint6,panda_joint7,-1.643535233324254,-1.20055936998057,1.9760940409483272,-1.997843050272147,-1.7745127527789073,1.0645420680280733,1.1551762406400616,-0.0028137440072766168,-0.005381524840667391,-0.021318491702037385,0.10471150397472366,-0.06045577708904287,0.04633504206946881,-0.13118218970770026,-0.022657117765487424,-30.560814412329833,25.39903184235025,-6.9881165247238455,0.8545870965776985,2.2475009716523,0.02096767105998097
19528000000,477,19527000000,,panda_joint1,panda_joint2,panda_joint3,panda_joint4,panda_joint5,panda_joint6,panda_joint7,-1.643449417316603,-1.2006056765289985,1.97549675340548,-1.9947990936621212,-1.7760596396460802,1.0653773244405347,1.153293003574504,0.020283731058997473,0.01178349410228678,-0.010942050322163135,0.031186457218858907,-0.02553708350440799,-0.0072849722635064205,0.0030218756666881563,0.415609208001481,-30.472391281564036,24.86580447656314,-4.3268732842645194,0.3689176508551532,2.2710208331547492,0.031571284911247735
19563000000,478,19562000000,,panda_joint1,panda_joint2,panda_joint3,panda_joint4,panda_joint5,panda_joint6,panda_joint7,-1.6430019869509396,-1.2004917787352394,1.9751417297032425,-1.9934483324568069,-1.7767280028761832,1.0660496456624058,1.1509548984868205,-0.002670777477600099,-0.008489660136060222,-0.016416968096444134,0.07331574932089312,-0.052139741654165295,0.052854569310601104,-0.13842465036897325,0.1035938605401742,-30.680752133775698,25.727473860142034,-7.764299526117371,1.0083312151099837,2.236829410877289,0.020471513773680127
19628000000,479,19597000000,,panda_joint1,panda_joint2,panda_joint3,panda_joint4,panda_joint5,panda_joint6,panda_joint7,-1.6436390699544123,-1.201215153715495,1.9743425645275288,-1.9891900655710906,-1.7792524463830617,1.0684609642385174,1.1456888789993505,-0.01582049956980433,-0.016768495009696814,-0.02696999893266325,0.12653287592465126,-0.08564280303038455,0.05501547052361522,-0.11434884383001583,-0.6695317520872363,-31.36558720147221,25.501478954581707,-5.972629868344036,0.5993257131815535,2.4199461591046654,0.005288946096012545
19659000000,480,19654000000,,panda_joint1,panda_joint2,panda_joint3,panda_joint4,panda_joint5,panda_joint6,panda_joint7,-1.6431814244682137,-1.2010513132312433,1.9733428186208428,-1.9856744120679979,-1.7811807701963094,1.0694361308809848,1.143072718446657,-0.005033124764827035,-0.008659458048159329,-0.016322612378379387,0.06316020050375036,-0.03139183421823831,0.04657079240722997,-0.12344020854428855,0.5755987105754455,-30.124623633791447,25.632648599948862,-8.189675735775621,0.8397777138187553,2.1816350346179862,-0.04504321718676195
19705000000,481,19697000000,,panda_joint1,panda_joint2,panda_joint3,panda_joint4,panda_joint5,panda_joint6,panda_joint7,-1.6434215021783558,-1.201485276097575,1.9721338948795477,-1.9812535808364586,-1.78408338643667,1.0722219278851943,1.1370195408183292,-0.0016645270872069355,-0.004321916676602056,-0.031004097400293532,0.10583416850250485,-0.07741061011422373,0.0433790901789351,-0.0883439167689076,-0.5841769554402312,-31.400356046419937,25.34550379608809,-5.647276678969379,0.5204696248295332,2.4318127295187146,-0.014960544173321233
19733000000,482,19731000000,,panda_joint1,panda_joint2,panda_joint3,panda_joint4,panda_joint5,panda_joint6,panda_joint7,-1.6430989373642966,-1.2013087887734981,1.9713077485470443,-1.9786625560142772,-1.7855838777699944,1.0729317960814635,1.135329916930349,0.016434039703379137,-0.001370765458707953,-0.018870996783084685,0.051064885284289915,-0.013964328433766323,0.016402407733691286,-0.047251486507200444,0.3636216268991368,-30.223947799173597,25.22668018836698,-6.145529853477333,0.48303821476503833,2.1832043343414176,0.027703325047271587
19774000000,483,19765000000,,panda_joint1,panda_joint2,panda_joint3,panda_joint4,panda_joint5,panda_joint6,panda_joint7,-1.6426583513240107,-1.2012091052959804,1.9703275897813537,-1.9761955490746264,-1.7873775421726776,1.074722419547582,1.1309084256301212,0.008307670172247686,0.0014388014455868877,-0.03832754009022344,0.10535642961671426,-0.08455361665194586,0.08385603314923418,-0.18011138452638384,-1.1362430803170807,-31.443330758140615,26.021138113810906,-7.701190098936687,0.8427460839084091,2.313211069627954,0.01091912418507876
19805000000,484,19799000000,,panda_joint1,panda_joint2,panda_joint3,panda_joint4,panda_joint5,panda_joint6,panda_joint7,-1.6424314774225381,-1.2012476122872764,1.9690278018784824,-1.972327591035456,-1.790044754307102,1.0767306763886664,1.12680815913523,0.0021437107187026747,0.0021121416754844194,-0.030367686699069234,0.10239528937739822,-0.056327154296214585,0.023682517027683283,-0.047361025423414874,0.17353391848271854,-30.522564460488145,24.935286204419683,-5.243997316379001,0.20588641156901516,2.3487371493695375,-0.03728887544974667
19837000000,485,19833000000,,panda_joint1,panda_joint2,panda_joint3,panda_joint4,panda_joint5,panda_joint6,panda_joint7,-1.6416091991275996,-1.2009123106816695,1.9677419906715645,-1.9694874719752615,-1.792196894765567,1.0784509171408443,1.1226227490280607,0.03378632529238078,0.015395416263492712,-0.050657738946196164,0.09847539314070053,-0.09193379181672592,0.08382994768097843,-0.19100122070371592,-0.6334431159696832,-31.245346928788646,25.948559754247974,-8.246955472523299,0.7510986705571638,2.2678180311886527,-0.010143573676123863
19883000000,486,19877000000,,panda_joint1,panda_joint2,panda_joint3,panda_joint4,panda_joint5,panda_joint6,panda_joint7,-1.640489019662505,-1.200391527483342,1.9657887100906137,-1.9648861617073718,-1.7955592126890103,1.080792606159454,1.1175293841756488,0.03843247727333099,0.022361760313991747,-0.03787435574856249,0.06906015659144189,-0.060792767062101724,0.02755759417328362,-0.09098146563595728,-0.026935441019676657,-31.171038361532613,25.404009508337204,-6.08716998618205,0.6671379976588074,2.1817391838061195,0.059648551769176356
19937000000,487,19923000000,,panda_joint1,panda_joint2,panda_joint3,panda_joint4,panda_joint5,panda_joint6,panda_joint7,-1.6387952508146677,-1.199701077416151,1.963472567578993,-1.9605574365220928,-1.7993791587120818,1.084029704473454,1.1103993697710557,0.046372261137352,0.02851009301064472,-0.05353543611994603,0.10162703466348957,-0.08830799176408016,0.054099371648276766,-0.1198851306144291,-0.0507882158678211,-30.997755921785604,25.289705180522095,-6.406789205305075,0.34567015169981086,2.3204339144293264,-0.02318341312833886
19973000000,488,19965000000,,panda_joint1,panda_joint2,panda_joint3,panda_joint4,panda_joint5,panda_joint6,panda_joint7,-1.6369520136485392,-1.198813782669486,1.9613482670924274,-1.9569413462219405,-1.8026357852242505,1.0864503291469951,1.1048919536709256,0.05286589319316114,0.024910685922321974,-0.06373318987623613,0.09024147992713757,-0.10756253174461144,0.10022577432542931,-0.20262764213677542,-1.173462544480836,-31.891834842300398,26.192357211247547,-7.59683084352174,0.7712656393246784,2.337579609926704,0.011882446403697915
20024000000,489,20001000000,,panda_joint1,panda_joint2,panda_joint3,panda_joint4,panda_joint5,panda_joint6,panda_joint7,-1.6352390019608691,-1.197921431458397,1.9593560975205584,-1.9535979323073818,-1.8055772368035754,1.0884272979162928,1.1007124121323066,0.04733446118266757,0.019018265433766193,-0.0423855260631531,0.07398229032637504,-0.038846922085588716,0.022727186485066376,-0.06894961396527213,0.597348325990322,-30.3911466584943,25.216748022834665,-5.837448335129994,0.42686434721422734,2.1109693321877976,0.05389716402763373
20057000000,490,20052000000,,panda_joint1,panda_joint2,panda_joint3,panda_joint4,panda_joint5,panda_joint6,panda_joint7,-1.6325329041998717,-1.1964876169312317,1.95676709733341,-1.9501338656194527,-1.8091089763648291,1.0909432448444907,1.0949557818471245,0.05033155941326803,0.030563804087462683,-0.0411693671947229,0.05398787426839361,-0.05623943164268661,0.024485595310842722,-0.08860137473692688,0.4890538300825504,-31.068556321401225,25.442505209921126,-6.185537925083683,0.7176862728671225,2.092629585581433,0.06762408139109509
20117000000,491,20117000000,,panda_joint1,panda_joint2,panda_joint3,panda_joint4,panda_joint5,panda_joint6,panda_joint7,-1.6293130377054972,-1.1950039632222094,1.9535998703840498,-1.9466265386607091,-1.813652661542669,1.0946470773607153,1.0873411949187712,0.048184651016356314,0.02934524370023889,-0.04524271475079332,0.05024483461378716,-0.06285282786962222,0.025436989043534617,-0.05670437272863728,0.6827931162274095,-31.19312643163742,25.04604655644547,-5.882875677031599,0.4255526510449258,2.3742731287039787,-0.030173882442965084
20163000000,492,20147000000,,panda_joint1,panda_joint2,panda_joint3,panda_joint4,panda_joint5,panda_joint6,panda_joint7,-1.6279291403330474,-1.1942492986623199,1.9522615252040332,-1.945143350510854,-1.8153702219032901,1.0958732883581526,1.084618472086552,0.04776293672989535,0.02875629163137466,-0.04422224350766744,0.040523517517925156,-0.06309831249622334,0.03265548610300229,-0.06287231002638628,0.5336425666049783,-31.275422452876036,25.189161145192763,-6.066267281646192,0.4673514006345124,2.404709225167475,-0.0349761951337584
20181000000,493,20181000000,,panda_joint1,panda_joint2,panda_joint3,panda_joint4,panda_joint5,panda_joint6,panda_joint7,-1.626144204478102,-1.1934630182244428,1.9504329587592544,-1.943809435599709,-1.817911586155807,1.0981586135339834,1.0801141200759066,0.06181995094500977,0.008427257552473921,-0.0730687690464314,0.044763542632661815,-0.09822422396708384,0.11570293553456024,-0.19502723928868346,-1.2450413072409194,-32.165609787802445,26.617452606946355,-8.53655477573826,0.732927463108314,2.450190931831794,-0.01381629188001651
20241000000,494,20224000000,,panda_joint1,panda_joint2,panda_joint3,panda_joint4,panda_joint5,panda_joint6,panda_joint7,-1.6236078808217993,-1.191962475705072,1.9478890073547355,-1.941601089205271,-1.820890209256266,1.1001111237632024,1.0760789123464232,0.0389188271980731,0.03076628983716243,-0.0399977542899658,0.05289826134868914,-0.034269360151731175,0.011280903318141917,-0.0575588383958074,0.8037398780958034,-30.340754892473445,25.26852333267569,-6.473292070219844,0.5374311955237883,2.037696194518007,0.032484806475252356
20279000000,495,20266000000,,panda_joint1,panda_joint2,panda_joint3,panda_joint4,panda_joint5,panda_joint6,panda_joint7,-1.6209955777811986,-1.1904824010962223,1.9456172312285762,-1.940178263603208,-1.8234948789361063,1.1020795266658796,1.0720291302747,0.046116170721891434,0.025768441999382437,-0.03316502971975626,0.043317951689931466,-0.006395059722275477,-0.009621124747968411,-0.0025611121994897484,1.6125650271588938,-29.79601022443674,24.592109375877914,-5.925680585005135,0.310343243551493,2.146116377514655,-0.014989602960195778
20343000000,496,20314000000,,panda_joint1,panda_joint2,panda_joint3,panda_joint4,panda_joint5,panda_joint6,panda_joint7,-1.6186720418487441,-1.1891649962462285,1.943794192466557,-1.9388201926898985,-1.825590746343261,1.1035287325871481,1.0686650314217783,0.03257632027861213,0.0149890222102993,-0.036005111255519355,0.033609320806144455,-0.048776167596936426,0.03617223476217838,-0.05510948252492169,0.9530358669754457,-30.587039719588027,25.195379960563393,-6.867686759162176,0.31672354241550865,2.382447618849219,-0.07124826728725332
20366000000,497,20356000000,,panda_joint1,panda_joint2,panda_joint3,panda_joint4,panda_joint5,panda_joint6,panda_joint7,-1.6164597191904164,-1.188211756827478,1.9419117450277223,-1.938120934379639,-1.8279962276357171,1.1055470247754586,1.0649939931811012,0.043750608555322604,0.015121622781412858,-0.03470473923927585,0.026218469192151095,-0.017487606227432995,0.014237893462099839,-0.032504467568725395,0.9133255913617279,-30.506872928289503,25.197616060097964,-6.8016616740890745,0.42418091060491003,2.2245694555665882,-0.013559751274338875
20410000000,498,20395000000,,panda_joint1,panda_joint2,panda_joint3,panda_joint4,panda_joint5,panda_joint6,panda_joint7,-1.6146828210092616,-1.1872459729928329,1.9404847518721073,-1.9373912266365574,-1.8296251197178357,1.1067420332237123,1.0624920934633906,0.04704517898262431,0.03321574883575241,-0.03428132451995054,0.015394805476778017,-0.038886960816268246,0.023278793442285624,-0.04601204430553371,0.17931386065907096,-31.122637332752603,25.40857083281793,-6.579488072946755,0.46695768629617884,2.275800886544678,0.012679442465663883
